[
  { "id": "prefeitura", "title": "Prefeitura Municipal", "description": "Prefeitura de General Sampaio", "latitude": -4.0435, "longitude": -39.4495, "categoria": "governo", "color": "red" },
  { "id": "secretaria", "title": "Secretaria de Educação", "description": "Órgão público municipal", "latitude": -4.042, "longitude": -39.452, "categoria": "governo", "color": "green" },
  { "id": "escola_1", "title": "Escola José Bezerra Filho", "description": "Escola Municipal de Ensino Fundamental", "latitude": -4.0428, "longitude": -39.4512, "categoria": "educação", "color": "blue" },
  { "id": "praca", "title": "Praça Central", "description": "Praça principal da cidade", "latitude": -4.044, "longitude": -39.448, "categoria": "lazer", "color": "orange" },
  { "id": "churrascaria", "title": "Churrascaria Sol Nascente", "description": "", "latitude": 4.046, "longitude": 39.45138, "categoria": "alimentação", "color": "brown" },
  { "id": "arco", "title": "Arco de GS", "description": "", "latitude": 4.04153, "longitude": 39.45193, "categoria": "turismo", "color": "purple" },
  { "id": "loja_mrstory", "title": "Loja Mrstory", "description": "", "latitude": 4.04179, "longitude": 39.452, "categoria": "comércio", "color": "gray" },
  { "id": "cemiterio_sao_jose", "title": "Cemitério São José", "description": "", "latitude": 4.04188, "longitude": 39.45103, "categoria": "serviço público", "color": "black" },
  { "id": "loja_kr", "title": "Loja KR Multimarcas", "description": "", "latitude": 4.04301, "longitude": 39.45047, "categoria": "comércio", "color": "gray" },
  { "id": "cemiterio_bom_jesus", "title": "Cemitério Bom Jesus", "description": "", "latitude": 4.0435, "longitude": 39.45147, "categoria": "serviço público", "color": "black" },
  { "id": "comida_caseira", "title": "Comida Caseira", "description": "", "latitude": 4.04373, "longitude": 39.45031, "categoria": "alimentação", "color": "brown" },
  { "id": "bar", "title": "Bar", "description": "", "latitude": 4.04462, "longitude": 39.44929, "categoria": "alimentação", "color": "brown" },
  { "id": "mercado_valdo", "title": "Mercadinho Sr Valdo", "description": "", "latitude": 4.04484, "longitude": 39.4481, "categoria": "comércio", "color": "gray" },
  { "id": "restaurante_1", "title": "Restaurante", "description": "", "latitude": 4.0454922, "longitude": 39.4498577, "categoria": "alimentação", "color": "brown" },
  { "id": "salao_beleza", "title": "Salão de Beleza", "description": "", "latitude": 4.0456425, "longitude": 39.4497475, "categoria": "serviço", "color": "pink" },
  { "id": "restaurante_2", "title": "Restaurante 2", "description": "", "latitude": 4.0455872, "longitude": 39.4489072, "categoria": "alimentação", "color": "brown" },
  { "id": "escola_2", "title": "Escola José Bezerra Filho", "description": "", "latitude": 4.0456362, "longitude": 39.4484561, "categoria": "educação", "color": "blue" },
  { "id": "barbearia_black", "title": "Barbearia Black", "description": "", "latitude": 4.0456362, "longitude": 39.4484561, "categoria": "serviço", "color": "pink" },
  { "id": "loja_construcao", "title": "Loja de Construção", "description": "", "latitude": 4.0457115, "longitude": 39.4478119, "categoria": "comércio", "color": "gray" },
  { "id": "espaco_lazer", "title": "Espaço de Lazer", "description": "", "latitude": 4.0452003, "longitude": 39.4475605, "categoria": "lazer", "color": "orange" },
  { "id": "mecanico", "title": "Mecânico", "description": "", "latitude": 4.046758, "longitude": 39.4489144, "categoria": "serviço", "color": "pink" },
  { "id": "biu_society", "title": "Espaço Biu Society", "description": "", "latitude": 4.047621, "longitude": 39.4478887, "categoria": "lazer", "color": "orange" }
]
