[
  {
    "id": "prefeitura",
    "title": "Prefeitura Municipal",
    "description": "Prefeitura de General Sampaio",
    "latitude": -4.0435,
    "longitude": -39.4495,
    "categoria": "turismo",
    "color": "red"
  },
  {
    "id": "secretaria",
    "title": "Secretaria de Educação",
    "description": "Órgão público municipal",
    "latitude": -4.042,
    "longitude": -39.452,
    "categoria": "secretaria",
    "color": "green"
  },
  {
    "id": "escola",
    "title": "Escola José Bezerra Filho",
    "description": "Escola Municipal de Ensino Fundamental",
    "latitude": -4.0428,
    "longitude": -39.4512,
    "categoria": "escola",
    "color": "blue"
  },
  {
    "id": "praca",
    "title": "Praça Central",
    "description": "Praça principal da cidade",
    "latitude": -4.044,
    "longitude": -39.448,
    "categoria": "lazer",
    "color": "orange"
  },
  {
    "id": "currascaria",
    "Title": "Churrascaria sol nascente",
    "description": "",
    "latitude": "4.046",
    "longitude": "39.45138",
    "categoria": "",
    "color": ""

  },
  {
    "id": "arco",
    "Title": "Arco de GS",
    "description": "",
    "latitude": "4.04153",
    "longitude": "39.45193",
    "categoria": "",
    "color": ""

},
  {
    "id": "loja",
    "Title": "Loja Mrstory",
    "description": "",
    "latitude": "4.04179",
    "longitude": "39.45200",
    "categoria": "",
    "color": ""
},
  {
    "id": "cemiterio",
    "Title": "Cimiterio São José",
    "description": "",
    "latitude": "4.04188",
    "longitude": "39.45103",
    "categoria": "",
    "color": ""
},
  {
    "id": "loja",
    "Title": "Loja Kr Multimarcas",
    "description": "",
    "latitude": "4.04301",
    "longitude": "39.45047",
    "categoria": "",
    "color": ""
},
  {
    "id": "cemiterio 2",
    "Title": "Cemiterio bom Jesus",
    "description": "",
    "latitude": "4.04350",
    "longitude": "39.45147",
    "categoria": "",
    "color": ""

},
  {
    "id": "restaurante",
    "Title": "Comida Caseira",
    "description": "",
    "latitude": "4.04373",
    "longitude": "39.45031",
    "categoria": "",
    "color": ""

},
  {
    "id": "bar",
    "Title": "Bar",
    "description": "",
    "latitude": "4.04462",
    "longitude": "39.44929",
    "categoria": "",
    "color": ""

},
  {
    "id": "mercado",
    "Title": "Mercadinho Sr Valdo",
    "description": "",
    "latitude": "4.04484",
    "longitude": "39.44810",
    "categoria": "",
    "color": ""

  
},
  {
    "id": "restaurante",
    "Title": "Restaurante",
    "description": "",
    "latitude": "4.0454922",
    "longitude": "39.4498577",
    "categoria": "",
    "color": ""

},
  {
    "id": "salão",
    "Title": "Salão de Beleza",
    "description": "",
    "latitude": "4.0456425",
    "longitude": "39.4497475",
    "categoria": "",
    "color": ""

},
  {
    "id": "restaurante",
    "Title": "Restaurante 2",
    "description": "",
    "latitude": "4.0455872",
    "longitude": "39.4489072",
    "categoria": "",
    "color": ""

    },
  {
    "id": "escola",
    "Title": "Escola José Bezerra Filho",
    "description": "",
    "latitude": "4.0456362",
    "longitude": "39.4484561",
    "categoria": "",
    "color": ""

  
    },
  {
    "id": "barbearia",
    "Title": "Barbearia Black",
    "description": "",
    "latitude": "4.0456362",
    "longitude": "39.4484561",
    "categoria": "",
    "color": ""

    },
  {
    "id": "Loja contrução",
    "Title": "Loja de Construção",
    "description": "",
    "latitude": "4.0457115",
    "longitude": "39.4478119",
    "categoria": "",
    "color": ""

        },
  {
    "id": "lazer",
    "Title": "Espaço de Lazer",
    "description": "",
    "latitude": "4.0452003",
    "longitude": "39.4475605",
    "categoria": "",
    "color": ""

        },
  {
    "id": "mecanico",
    "Title": "Mecanico",
    "description": "",
    "latitude": "4.046758",
    "longitude": "39.4489144",
    "categoria": "",
    "color": ""

            },
  {
    "id": "Biu",
    "Title": "Espaço Biu Society",
    "description": "",
    "latitude": "4.047621",
    "longitude": "39.4478887",
    "categoria": "",
    "color": ""


  }
]
