[
  {
    "id": "prefeitura",
    "title": "Prefeitura Municipal",
    "description": "Prefeitura de General Sampaio",
    "latitude": -4.0435,
    "longitude": -39.4495,
    "categoria": "turismo",
    "color": "red"
  },
  {
    "id": "secretaria",
    "title": "Secretaria de Educação",
    "description": "Órgão público municipal",
    "latitude": -4.042,
    "longitude": -39.452,
    "categoria": "secretaria",
    "color": "green"
  },
  {
    "id": "escola_1",
    "title": "Escola José Bezerra Filho",
    "description": "Escola Municipal de Ensino Fundamental",
    "latitude": -4.0428,
    "longitude": -39.4512,
    "categoria": "escola",
    "color": "blue"
  },
  {
    "id": "praca",
    "title": "Praça Central",
    "description": "Praça principal da cidade",
    "latitude": -4.044,
    "longitude": -39.448,
    "categoria": "lazer",
    "color": "orange"
  },
  {
    "id": "churrascaria",
    "title": "Churrascaria Sol Nascente",
    "description": "",
    "latitude": 4.046,
    "longitude": 39.45138,
    "categoria": "",
    "color": ""
  },
  {
    "id": "arco",
    "title": "Arco de GS",
    "description": "",
    "latitude": 4.04153,
    "longitude": 39.45193,
    "categoria": "",
    "color": ""
  },
  {
    "id": "loja_mrstory",
    "title": "Loja Mrstory",
    "description": "",
    "latitude": 4.04179,
    "longitude": 39.452,
    "categoria": "",
    "color": ""
  },
  {
    "id": "cemiterio_sao_jose",
    "title": "Cemitério São José",
    "description": "",
    "latitude": 4.04188,
    "longitude": 39.45103,
    "categoria": "",
    "color": ""
  },
  {
    "id": "loja_kr",
    "title": "Loja KR Multimarcas",
    "description": "",
    "latitude": 4.04301,
    "longitude": 39.45047,
    "categoria": "",
    "color": ""
  },
  {
    "id": "cemiterio_bom_jesus",
    "title": "Cemitério Bom Jesus",
    "description": "",
    "latitude": 4.0435,
    "longitude": 39.45147,
    "categoria": "",
    "color": ""
  },
  {
    "id": "comida_caseira",
    "title": "Comida Caseira",
    "description": "",
    "latitude": 4.04373,
    "longitude": 39.45031,
    "categoria": "",
    "color": ""
  },
  {
    "id": "bar",
    "title": "Bar",
    "description": "",
    "latitude": 4.04462,
    "longitude": 39.44929,
    "categoria": "",
    "color": ""
  },
  {
    "id": "mercado_valdo",
    "title": "Mercadinho Sr Valdo",
    "description": "",
    "latitude": 4.04484,
    "longitude": 39.4481,
    "categoria": "",
    "color": ""
  },
  {
    "id": "restaurante_1",
    "title": "Restaurante",
    "description": "",
    "latitude": 4.0454922,
    "longitude": 39.4498577,
    "categoria": "",
    "color": ""
  },
  {
    "id": "salao_beleza",
    "title": "Salão de Beleza",
    "description": "",
    "latitude": 4.0456425,
    "longitude": 39.4497475,
    "categoria": "",
    "color": ""
  },
  {
    "id": "restaurante_2",
    "title": "Restaurante 2",
    "description": "",
    "latitude": 4.0455872,
    "longitude": 39.4489072,
    "categoria": "",
    "color": ""
  },
  {
    "id": "escola_2",
    "title": "Escola José Bezerra Filho",
    "description": "",
    "latitude": 4.0456362,
    "longitude": 39.4484561,
    "categoria": "",
    "color": ""
  },
  {
    "id": "barbearia_black",
    "title": "Barbearia Black",
    "description": "",
    "latitude": 4.0456362,
    "longitude": 39.4484561,
    "categoria": "",
    "color": ""
  },
  {
    "id": "loja_construcao",
    "title": "Loja de Construção",
    "description": "",
    "latitude": 4.0457115,
    "longitude": 39.4478119,
    "categoria": "",
    "color": ""
  },
  {
    "id": "espaco_lazer",
    "title": "Espaço de Lazer",
    "description": "",
    "latitude": 4.0452003,
    "longitude": 39.4475605,
    "categoria": "",
    "color": ""
  },
  {
    "id": "mecanico",
    "title": "Mecânico",
    "description": "",
    "latitude": 4.046758,
    "longitude": 39.4489144,
    "categoria": "",
    "color": ""
  },
  {
    "id": "biu_society",
    "title": "Espaço Biu Society",
    "description": "",
    "latitude": 4.047621,
    "longitude": 39.4478887,
    "categoria": "",
    "color": ""
  }
]
